{
   "type": "FeatureCollection",
   "features": [
  {
    "type": "Feature",
    "geometry": {
       "type": "Point",
       "coordinates":  [ 114.1689931,22.3261922 ]
    },
    "properties": {
    "district":"旺角",
    "name":"醉酒棧2",
    "phone":"31651603",
    "address":"旺角通菜街227-229號東威大廈地下B室",
    "opening_hour":"1600-0500",
    "play_schedule":"未知",
    "reservation":"要",
    "min_charge":"要，但當日才決定",
    "special_event":"未知"
    }
  },
  {
    "type": "Feature",
    "geometry": {
       "type": "Point",
       "coordinates":  [ 114.031286,22.4423751 ]
    },
    "properties": {
    "district":"元朗",
    "name":"SHOP E",
    "phone":"26441222",
    "address":"元朗建業街104號满利大廈地下F室",
    "opening_hour":"1700-0230",
    "play_schedule":"場場播",
    "reservation":"可以",
    "min_charge":"未知",
    "special_event":"未知"
    }
  },
  {
    "type": "Feature",
    "geometry": {
       "type": "Point",
       "coordinates":  [ 114.1668755,22.3226029 ]
    },
    "properties": {
    "district":"太子",
    "name":"春夏秋冬火鍋",
    "phone":"23813117/23813955",
    "address":"太子新填地街595號MOD 595 1樓全層",
    "opening_hour":"1700-0500",
    "play_schedule":"場場播",
    "reservation":"要",
    "min_charge":"沒有",
    "special_event":"沒有"
    }
  },
  {
    "type": "Feature",
    "geometry": {
       "type": "Point",
       "coordinates":  [ 114.1803422,22.2806007 ]
    },
    "properties": {
    "district":"灣仔",
    "name":"M1",
    "phone":"21714268",
    "address":"銅鑼灣告士打道229-230號宇宙商業大廈地舖A-C號舖",
    "opening_hour":"1500-播完波",
    "play_schedule":"場場播 (除非撞場)",
    "reservation":"要",
    "min_charge":"200-300",
    "special_event":""
    }
  },
  {
    "type": "Feature",
    "geometry": {
       "type": "Point",
       "coordinates":  [ 114.1739859,22.3013607 ]
    },
    "properties": {
    "district":"尖沙咀",
    "name":"ARENA BY ZERVE",
    "phone":"96837083",
    "address":"尖沙咀諾士佛臺10號1樓全層",
    "opening_hour":"",
    "play_schedule":"",
    "reservation":"",
    "min_charge":"",
    "special_event":""
    }
  },
  {
    "type": "Feature",
    "geometry": {
       "type": "Point",
       "coordinates":  [ 114.1592164,22.3356908 ]
    },
    "properties": {
    "district":"深水埗",
    "name":"駿逸薈",
    "phone":"31055084",
    "address":"深水埗元州街290-296號西岸國際大廈2樓",
    "opening_hour":"24小時",
    "play_schedule":"場場播",
    "reservation":"不用",
    "min_charge":"未知",
    "special_event":"未知"
    }
  },
  {
    "type": "Feature",
    "geometry": {
       "type": "Point",
       "coordinates":  [ 114.1523449,22.2823763 ]
    },
    "properties": {
    "district":"上環",
    "name":"MCSORLEY'S ALE HOUSE",
    "phone":"23855515",
    "address":"上環史丹頓街均發樓地下",
    "opening_hour":"1200-0100",
    "play_schedule":"因0100關門,所以未必播足",
    "reservation":"不用",
    "min_charge":"未知",
    "special_event":"未知"
    }
  },
  {
    "type": "Feature",
    "geometry": {
       "type": "Point",
       "coordinates":  [ 114.1742414,22.2977236 ]
    },
    "properties": {
    "district":"尖沙咀",
    "name":"BIERGARTEN",
    "phone":"27212302",
    "address":"尖沙咀河內道5號普基商業中心地下1號舖",
    "opening_hour":"",
    "play_schedule":"",
    "reservation":"",
    "min_charge":"",
    "special_event":""
    }
  },
  {
    "type": "Feature",
    "geometry": {
       "type": "Point",
       "coordinates":  [ 114.1780498,22.2792924 ]
    },
    "properties": {
    "district":"灣仔",
    "name":"BILLIDART RESTAURANT & BAR",
    "phone":"21443000/21443010",
    "address":"灣仔杜老誌道6號群策大廈7-8樓全層",
    "opening_hour":"",
    "play_schedule":"",
    "reservation":"",
    "min_charge":"",
    "special_event":""
    }
  },
  {
    "type": "Feature",
    "geometry": {
       "type": "Point",
       "coordinates":  [ 114.1615219,22.3048708 ]
    },
    "properties": {
    "district":"尖沙咀",
    "name":"GRAND CENTRAL BAR & GRILL",
    "phone":"27364888",
    "address":"尖沙咀柯士甸道西1號圓方(Elements)3樓平台R001號舖",
    "opening_hour":"",
    "play_schedule":"",
    "reservation":"",
    "min_charge":"",
    "special_event":""
    }
  },
  {
    "type": "Feature",
    "geometry": {
       "type": "Point",
       "coordinates":  [ 114.1879887,22.3211465 ]
    },
    "properties": {
    "district":"土瓜灣",
    "name":"富吧吧",
    "phone":"35752890",
    "address":"九龍土瓜灣譚公道16-26號長城大廈地下5A號鋪",
    "opening_hour":"",
    "play_schedule":"",
    "reservation":"",
    "min_charge":"",
    "special_event":""
    }
  },
  {
    "type": "Feature",
    "geometry": {
       "type": "Point",
       "coordinates":  [ 114.1787697,22.299604 ]
    },
    "properties": {
    "district":"尖沙咀",
    "name":"噴泉咖啡屋",
    "phone":"34211356",
    "address":"尖沙咀麼地道75號南洋中心地下9-10號舖",
    "opening_hour":"",
    "play_schedule":"",
    "reservation":"",
    "min_charge":"",
    "special_event":""
    }
  },
  {
    "type": "Feature",
    "geometry": {
       "type": "Point",
       "coordinates":  [ 114.1745201,22.2981593 ]
    },
    "properties": {
    "district":"尖沙咀",
    "name":"CALI CALI",
    "phone":"35231578",
    "address":" 尖沙咀赫德道2A號首邦行1/F",
    "opening_hour":"",
    "play_schedule":"",
    "reservation":"",
    "min_charge":"",
    "special_event":""
    }
  },
  {
    "type": "Feature",
    "geometry": {
       "type": "Point",
       "coordinates":  [ 114.111215,22.372903 ]
    },
    "properties": {
    "district":"荃灣",
    "name":"LUCKY U",
    "phone":"28851992",
    "address":"荃灣沙咀道105-129號好運唐樓地下5-7號舖",
    "opening_hour":"1900-0500",
    "play_schedule":"",
    "reservation":"",
    "min_charge":"",
    "special_event":""
    }
  },
  {
    "type": "Feature",
    "geometry": {
       "type": "Point",
       "coordinates":  [ 114.1850164,22.2700428 ]
    },
    "properties": {
    "district":"跑馬地",
    "name":"THE JOCKEY",
    "phone":"25722266",
    "address":"跑馬地黃泥涌道33號愉園大廈地下",
    "opening_hour":"15:00 - 02:00 (mon-fri)11:00 - 02:00 (sat,sun)",
    "play_schedule":"",
    "reservation":"",
    "min_charge":"",
    "special_event":""
    }
  },
  {
    "type": "Feature",
    "geometry": {
       "type": "Point",
       "coordinates":  [ 114.1739879,22.3013556 ]
    },
    "properties": {
    "district":"尖沙咀",
    "name":"SHOWTIME",
    "phone":"23889050",
    "address":"尖沙咀諾士佛臺10號騰龍閣3樓",
    "opening_hour":"",
    "play_schedule":"",
    "reservation":"",
    "min_charge":"",
    "special_event":""
    }
  },
  {
    "type": "Feature",
    "geometry": {
       "type": "Point",
       "coordinates":  [ 114.172221,22.2779215 ]
    },
    "properties": {
    "district":"灣仔",
    "name":"CHURCHILLS",
    "phone":"21777002",
    "address":"灣仔駱克道104號麗麗大廈地下C舖",
    "opening_hour":"",
    "play_schedule":"",
    "reservation":"",
    "min_charge":"",
    "special_event":""
    }
  },
  {
    "type": "Feature",
    "geometry": {
       "type": "Point",
       "coordinates":  [ 114.172545,22.277951 ]
    },
    "properties": {
    "district":"灣仔",
    "name":"COYOTE BAR & GRILL",
    "phone":"28612221",
    "address":"灣仔駱克道114-120號嘉洛商業大廈",
    "opening_hour":"",
    "play_schedule":"",
    "reservation":"",
    "min_charge":"",
    "special_event":""
    }
  },
  {
    "type": "Feature",
    "geometry": {
       "type": "Point",
       "coordinates":  [ 114.1687442,22.3179137 ]
    },
    "properties": {
    "district":"旺角",
    "name":"BEERLINER GERMAN BAR & RESTAURANT",
    "phone":"29720078",
    "address":"旺角亞皆老街8號朗豪坊13樓05號舖",
    "opening_hour":"12:00 - 01:00",
    "play_schedule":"",
    "reservation":"",
    "min_charge":"",
    "special_event":""
    }
  },
  {
    "type": "Feature",
    "geometry": {
       "type": "Point",
       "coordinates":  [ 114.178698,22.29968 ]
    },
    "properties": {
    "district":"尖沙咀",
    "name":"ENJOY SASHIMI",
    "phone":"23120628",
    "address":"尖沙咀麼地道75號南洋中心G22-26號舖",
    "opening_hour":"",
    "play_schedule":"",
    "reservation":"",
    "min_charge":"",
    "special_event":""
    }
  },
  {
    "type": "Feature",
    "geometry": {
       "type": "Point",
       "coordinates":  [ 114.0166891,22.296326 ]
    },
    "properties": {
    "district":"愉景灣",
    "name":"MCSORLEY'S ALE HOUSE",
    "phone":"29878280",
    "address":"愉景灣D'Deck地下G11A號舖",
    "opening_hour":"",
    "play_schedule":"",
    "reservation":"",
    "min_charge":"",
    "special_event":""
    }
  },
  {
    "type": "Feature",
    "geometry": {
       "type": "Point",
       "coordinates":  [ 114.0244565,22.4412241 ]
    },
    "properties": {
    "district":"元朗",
    "name":"B TOO",
    "phone":"25118338",
    "address":"元朗馬田路50號朗景臺19號地舖",
    "opening_hour":"1730-0230",
    "play_schedule":"",
    "reservation":"",
    "min_charge":"",
    "special_event":""
    }
  },
  {
    "type": "Feature",
    "geometry": {
       "type": "Point",
       "coordinates":  [ 114.2249093,22.2794451 ]
    },
    "properties": {
    "district":"筲箕灣",
    "name":"FOCUS BAR",
    "phone":"21727790",
    "address":"筲箕灣新成街8號新成中心地下F舖",
    "opening_hour":"",
    "play_schedule":"",
    "reservation":"",
    "min_charge":"",
    "special_event":""
    }
  },
  {
    "type": "Feature",
    "geometry": {
       "type": "Point",
       "coordinates":  [ 114.2217979,22.3159817 ]
    },
    "properties": {
    "district":"觀塘",
    "name":"FOCUS BAR",
    "phone":"21727790",
    "address":"觀塘恆安街15號恆安樓地下",
    "opening_hour":"1700-0500",
    "play_schedule":"",
    "reservation":"",
    "min_charge":"",
    "special_event":""
    }
  },
  {
    "type": "Feature",
    "geometry": {
       "type": "Point",
       "coordinates":  [ 114.2240502,22.315081 ]
    },
    "properties": {
    "district":"觀塘",
    "name":"FOCUS BAR",
    "phone":"29519001",
    "address":"觀塘 通明街48號康寧大廈地下",
    "opening_hour":"",
    "play_schedule":"",
    "reservation":"",
    "min_charge":"",
    "special_event":""
    }
  },
  {
    "type": "Feature",
    "geometry": {
       "type": "Point",
       "coordinates":  [ 114.1741457,22.2977306 ]
    },
    "properties": {
    "district":"尖沙咀",
    "name":"LULU",
    "phone":"23120468",
    "address":"尖沙咀河內道5-7號普基商業大廈地下2號舖",
    "opening_hour":"",
    "play_schedule":"",
    "reservation":"",
    "min_charge":"",
    "special_event":""
    }
  },
  {
    "type": "Feature",
    "geometry": {
       "type": "Point",
       "coordinates":  [ 114.1607259,22.3359978 ]
    },
    "properties": {
    "district":"深水埗",
    "name":"春夏秋冬火鍋",
    "phone":"31097331",
    "address":"深水埗順寧道38號順康居地下4號舖",
    "opening_hour":"1700-0500",
    "play_schedule":"場場播",
    "reservation":"要",
    "min_charge":"沒有",
    "special_event":"沒有"
    }
  },
  {
    "type": "Feature",
    "geometry": {
       "type": "Point",
       "coordinates":  [ 114.1939334,22.2891703 ]
    },
    "properties": {
    "district":"北角",
    "name":"春夏秋冬火鍋",
    "phone":"31066077",
    "address":"北角英皇道177號利都樓1樓",
    "opening_hour":"",
    "play_schedule":"",
    "reservation":"",
    "min_charge":"",
    "special_event":""
    }
  },
  {
    "type": "Feature",
    "geometry": {
       "type": "Point",
       "coordinates":  [ 114.1791645,22.27964 ]
    },
    "properties": {
    "district":"灣仔",
    "name":"J1手臂吧",
    "phone":"37020370",
    "address":"謝斐道340-348保如大廈地下A-D室",
    "opening_hour":"",
    "play_schedule":"",
    "reservation":"",
    "min_charge":"",
    "special_event":""
    }
  },
  {
    "type": "Feature",
    "geometry": {
       "type": "Point",
       "coordinates":  [ 114.1740556,22.3005867 ]
    },
    "properties": {
    "district":"尖沙咀",
    "name":"DK BAR & RESTAURANT",
    "phone":"26567676",
    "address":"尖沙咀金巴利道40號MW Plaza 2樓",
    "opening_hour":"",
    "play_schedule":"",
    "reservation":"",
    "min_charge":"",
    "special_event":""
    }
  },
  {
    "type": "Feature",
    "geometry": {
       "type": "Point",
       "coordinates":  [ 114.170743,22.3061695 ]
    },
    "properties": {
    "district":"佐敦",
    "name":"TWISTER",
    "phone":"92407222",
    "address":"佐敦白加仕街91-103號珀軒2樓",
    "opening_hour":"",
    "play_schedule":"",
    "reservation":"",
    "min_charge":"",
    "special_event":""
    }
  },
  {
    "type": "Feature",
    "geometry": {
       "type": "Point",
       "coordinates":  [ 114.172221,22.2779215 ]
    },
    "properties": {
    "district":"灣仔",
    "name":"QUEEN VICTORIA",
    "phone":"25297800",
    "address":"灣仔駱克道108號麗麗大廈地下",
    "opening_hour":"",
    "play_schedule":"",
    "reservation":"",
    "min_charge":"",
    "special_event":""
    }
  },
  {
    "type": "Feature",
    "geometry": {
       "type": "Point",
       "coordinates":  [ 114.175716,22.3020363 ]
    },
    "properties": {
    "district":"尖沙咀",
    "name":"M1",
    "phone":"23119922",
    "address":"尖沙咀金巴利道80號奇盛商業大廈地庫",
    "opening_hour":"",
    "play_schedule":"",
    "reservation":"",
    "min_charge":"",
    "special_event":""
    }
  },
  {
    "type": "Feature",
    "geometry": {
       "type": "Point",
       "coordinates":  [ 114.216537,22.321975 ]
    },
    "properties": {
    "district":"牛頭角",
    "name":"牛下合利小廚",
    "phone":"23059676",
    "address":"牛頭角牛頭角道183號牛頭角街市1樓C4號舖",
    "opening_hour":"",
    "play_schedule":"",
    "reservation":"",
    "min_charge":"",
    "special_event":""
    }
  },
  {
    "type": "Feature",
    "geometry": {
       "type": "Point",
       "coordinates":  [ 114.163493,22.3203352 ]
    },
    "properties": {
    "district":"大角咀",
    "name":"骨煲皇．火鍋世家",
    "phone":"23804441",
    "address":"大角咀杉樹街2-16號金基大廈地下1-3號及1樓",
    "opening_hour":"老闆晚上八點先返",
    "play_schedule":"",
    "reservation":"",
    "min_charge":"",
    "special_event":""
    }
  },
  {
    "type": "Feature",
    "geometry": {
       "type": "Point",
       "coordinates":  [ 114.2218211,22.3152589 ]
    },
    "properties": {
    "district":"觀塘",
    "name":"華豐海鮮菜館",
    "phone":"23413629",
    "address":"觀塘宜安街2號致昌大廈地下2C-2D號舖",
    "opening_hour":"老闆話唔播",
    "play_schedule":"",
    "reservation":"",
    "min_charge":"",
    "special_event":""
    }
  },
  {
    "type": "Feature",
    "geometry": {
       "type": "Point",
       "coordinates":  [ 114.2200082,22.312618 ]
    },
    "properties": {
    "district":"觀塘",
    "name":"鴻圖樓",
    "phone":"23435122(電話沙沙聲)",
    "address":" 觀塘鴻圖道30號地下",
    "opening_hour":"",
    "play_schedule":"",
    "reservation":"",
    "min_charge":"",
    "special_event":""
    }
  },
  {
    "type": "Feature",
    "geometry": {
       "type": "Point",
       "coordinates":  [ 114.1685055,22.3255933 ]
    },
    "properties": {
    "district":"太子",
    "name":"J 2 BAR",
    "phone":"93892023",
    "address":"太子西洋菜北街163A恒安大廈地下",
    "opening_hour":"",
    "play_schedule":"",
    "reservation":"",
    "min_charge":"",
    "special_event":""
    }
  },
  {
    "type": "Feature",
    "geometry": {
       "type": "Point",
       "coordinates":  [ 114.1816445,22.2772714 ]
    },
    "properties": {
    "district":"銅鑼灣",
    "name":"PRIMAL CUT BAR & GRILL",
    "phone":"26183122",
    "address":"銅鑼灣耀華街38號 Zing! 8樓",
    "opening_hour":"",
    "play_schedule":"",
    "reservation":"",
    "min_charge":"",
    "special_event":""
    }
  },
  {
    "type": "Feature",
    "geometry": {
       "type": "Point",
       "coordinates":  [ 114.1747987,22.2984642 ]
    },
    "properties": {
    "district":"尖沙咀",
    "name":"M1 BAR",
    "phone":"23117212",
    "address":"尖沙咀寶勒巷17-19號寶勒商業大廈地下",
    "opening_hour":"",
    "play_schedule":"",
    "reservation":"",
    "min_charge":"",
    "special_event":""
    }
  },
  {
    "type": "Feature",
    "geometry": {
       "type": "Point",
       "coordinates":  [ 114.1604472,22.3280192 ]
    },
    "properties": {
    "district":"深水埗",
    "name":"錦記打冷",
    "phone":"27291983",
    "address":"深水埗北河街33-39號愉翠苑地下6號舖",
    "opening_hour":"",
    "play_schedule":"",
    "reservation":"",
    "min_charge":"",
    "special_event":""
    }
  },
  {
    "type": "Feature",
    "geometry": {
       "type": "Point",
       "coordinates":  [ 114.170239,22.320124 ]
    },
    "properties": {
    "district":"旺角",
    "name":"九記潮州食店",
    "phone":"23931598",
    "address":"旺角通菜街109號?",
    "opening_hour":"",
    "play_schedule":"",
    "reservation":"",
    "min_charge":"",
    "special_event":""
    }
  },
  {
    "type": "Feature",
    "geometry": {
       "type": "Point",
       "coordinates":  [ 114.1703253,22.2973059 ]
    },
    "properties": {
    "district":"尖沙咀",
    "name":"AQUA SQUARE",
    "phone":"27248333",
    "address":"尖沙咀亞士厘道27號捷利商業中心5樓",
    "opening_hour":"",
    "play_schedule":"",
    "reservation":"",
    "min_charge":"",
    "special_event":""
    }
  },
  {
    "type": "Feature",
    "geometry": {
       "type": "Point",
       "coordinates":  [ 114.1476036,22.2865346 ]
    },
    "properties": {
    "district":"上環",
    "name":"KONFUSION RESTAURANT AND BAR",
    "phone":"23883367",
    "address":"上環皇后大道西42-56號賴恩樓地下B號舖",
    "opening_hour":"",
    "play_schedule":"",
    "reservation":"",
    "min_charge":"",
    "special_event":""
    }
  },
  {
    "type": "Feature",
    "geometry": {
       "type": "Point",
       "coordinates":  [ 114.1678329,22.3275554 ]
    },
    "properties": {
    "district":"太子",
    "name":"GRAND PUB",
    "phone":"27845688",
    "address":"太子西洋菜北街221-225號美邦大廈地下C舖",
    "opening_hour":"",
    "play_schedule":"",
    "reservation":"",
    "min_charge":"",
    "special_event":""
    }
  },
  {
    "type": "Feature",
    "geometry": {
       "type": "Point",
       "coordinates":  [ 114.0303568,22.4447901 ]
    },
    "properties": {
    "district":"元朗",
    "name":"MOSES BAR RESTAURANT炸雞專門店",
    "phone":"27090966",
    "address":"元朗水車館街84-88號興旺大廈地下6-8號舖",
    "opening_hour":"",
    "play_schedule":"",
    "reservation":"",
    "min_charge":"",
    "special_event":""
    }
  },
  {
    "type": "Feature",
    "geometry": {
       "type": "Point",
       "coordinates":  [ 114.188876,22.30639 ]
    },
    "properties": {
    "district":"紅磡",
    "name":"MALTY",
    "phone":"28862227",
    "address":"紅磡黄埔新邨民泰街69號可榮樓地下F2舖 (?)",
    "opening_hour":"",
    "play_schedule":"",
    "reservation":"",
    "min_charge":"",
    "special_event":""
    }
  },
  {
    "type": "Feature",
    "geometry": {
       "type": "Point",
       "coordinates":  [ 114.1668567,22.3246107 ]
    },
    "properties": {
    "district":"太子",
    "name":"來發館火鍋刺身點心專門店",
    "phone":"27809198",
    "address":"太子大南街40-42號美綸樓地下",
    "opening_hour":"",
    "play_schedule":"",
    "reservation":"",
    "min_charge":"",
    "special_event":""
    }
  },
  {
    "type": "Feature",
    "geometry": {
       "type": "Point",
       "coordinates":  [ 114.1739859,22.3013607 ]
    },
    "properties": {
    "district":"尖沙咀",
    "name":"咕嚕",
    "phone":"22536668",
    "address":"尖沙咀諾士佛臺10號騰龍閣4樓",
    "opening_hour":"",
    "play_schedule":"",
    "reservation":"",
    "min_charge":"",
    "special_event":""
    }
  },
  {
    "type": "Feature",
    "geometry": {
       "type": "Point",
       "coordinates":  [ 114.178698,22.29968 ]
    },
    "properties": {
    "district":"尖沙咀",
    "name":"MODY'S GRILL & BAR",
    "phone":"27213938",
    "address":"尖沙咀麼地道75號南洋中心36-41號地舖 ",
    "opening_hour":"",
    "play_schedule":"",
    "reservation":"",
    "min_charge":"",
    "special_event":""
    }
  },
  {
    "type": "Feature",
    "geometry": {
       "type": "Point",
       "coordinates":  [ 114.1685055,22.3255933 ]
    },
    "properties": {
    "district":"太子",
    "name":"ABCB",
    "phone":"93892023",
    "address":"太子西洋菜北街 161 號恆安大樓地下",
    "opening_hour":"",
    "play_schedule":"",
    "reservation":"",
    "min_charge":"",
    "special_event":""
    }
  },
  {
    "type": "Feature",
    "geometry": {
       "type": "Point",
       "coordinates":  [ 114.2113991,22.2876057 ]
    },
    "properties": {
    "district":"鰂魚涌",
    "name":"MR & MRS FOX",
    "phone":"26978500",
    "address":"鰂魚涌糖廠街23號太古坊栢舍地下至2樓",
    "opening_hour":"",
    "play_schedule":"",
    "reservation":"",
    "min_charge":"",
    "special_event":""
    }
  },
  {
    "type": "Feature",
    "geometry": {
       "type": "Point",
       "coordinates":  [ 114.1702471,22.2784721 ]
    },
    "properties": {
    "district":"灣仔",
    "name":"TYPHOON",
    "phone":"25272077",
    "address":"灣仔駱克道37-39號得利樓地下",
    "opening_hour":"",
    "play_schedule":"",
    "reservation":"",
    "min_charge":"",
    "special_event":""
    }
  },
  {
    "type": "Feature",
    "geometry": {
       "type": "Point",
       "coordinates":  [ 114.1816445,22.2772714 ]
    },
    "properties": {
    "district":"銅鑼灣",
    "name":"Hex Bar & Billiards",
    "phone":"23290899",
    "address":" 銅鑼灣耀華街38號Zing 26/F",
    "opening_hour":"",
    "play_schedule":"",
    "reservation":"",
    "min_charge":"",
    "special_event":""
    }
  },
  {
    "type": "Feature",
    "geometry": {
       "type": "Point",
       "coordinates":  [ 114.2111722,22.2187421 ]
    },
    "properties": {
    "district":"赤柱",
    "name":"PICKLED PELICAN",
    "phone":"28134313",
    "address":"赤柱赤柱大街90號",
    "opening_hour":"",
    "play_schedule":"",
    "reservation":"",
    "min_charge":"",
    "special_event":""
    }
  },
  {
    "type": "Feature",
    "geometry": {
       "type": "Point",
       "coordinates":  [ 114.1740538,22.3012096 ]
    },
    "properties": {
    "district":"尖沙咀",
    "name":"PENTHOUSE BAR",
    "phone":"25556663",
    "address":"尖沙咀 諾士佛台一號3樓全層",
    "opening_hour":"",
    "play_schedule":"",
    "reservation":"",
    "min_charge":"",
    "special_event":""
    }
  },
  {
    "type": "Feature",
    "geometry": {
       "type": "Point",
       "coordinates":  [ 114.1694102,22.3055963 ]
    },
    "properties": {
    "district":"佐敦",
    "name":"澳門台山水佬榮火鍋專家",
    "phone":"23278282",
    "address":"佐敦道上海街佐敦中心37C-37D號3-4樓 ",
    "opening_hour":"",
    "play_schedule":"",
    "reservation":"",
    "min_charge":"",
    "special_event":""
    }
  },
  {
    "type": "Feature",
    "geometry": {
       "type": "Point",
       "coordinates":  [ 114.1518756,22.2829268 ]
    },
    "properties": {
    "district":"上環",
    "name":"唐西風月",
    "phone":"27558368",
    "address":"上環蘇豪士丹頓街67號地下C鋪",
    "opening_hour":"",
    "play_schedule":"",
    "reservation":"",
    "min_charge":"",
    "special_event":""
    }
  },
  {
    "type": "Feature",
    "geometry": {
       "type": "Point",
       "coordinates":  [ 114.1568683,22.3362598 ]
    },
    "properties": {
    "district":"長沙灣",
    "name":"紅火雞煲",
    "phone":"27087083",
    "address":"長沙灣元州街277-279號地舖",
    "opening_hour":"",
    "play_schedule":"",
    "reservation":"",
    "min_charge":"",
    "special_event":""
    }
  },
  {
    "type": "Feature",
    "geometry": {
       "type": "Point",
       "coordinates":  [ 114.1742414,22.2977236 ]
    },
    "properties": {
    "district":"尖沙咀",
    "name":"PLAYA DE PAPAGAYO",
    "phone":"27391808",
    "address":"尖沙咀河內道5號普基商業中心地下3-4號舖",
    "opening_hour":"",
    "play_schedule":"",
    "reservation":"",
    "min_charge":"",
    "special_event":""
    }
  },
  {
    "type": "Feature",
    "geometry": {
       "type": "Point",
       "coordinates":  [ 114.1655408,22.4542767 ]
    },
    "properties": {
    "district":"大埔",
    "name":"BEER & FISH",
    "phone":"26642211",
    "address":"大埔舊墟直街30號美利大廈地下13號舖",
    "opening_hour":"",
    "play_schedule":"",
    "reservation":"",
    "min_charge":"",
    "special_event":""
    }
  },
  {
    "type": "Feature",
    "geometry": {
       "type": "Point",
       "coordinates":  [ 114.1521449,22.2820296 ]
    },
    "properties": {
    "district":"中環",
    "name":"DE BELGIE",
    "phone":"28698388",
    "address":"中環伊利近街21號",
    "opening_hour":"",
    "play_schedule":"",
    "reservation":"",
    "min_charge":"",
    "special_event":""
    }
  },
  {
    "type": "Feature",
    "geometry": {
       "type": "Point",
       "coordinates":  [ 114.1546713,22.2819012 ]
    },
    "properties": {
    "district":"中環",
    "name":"SLIDE ON 79",
    "phone":"27799279",
    "address":"中環雲咸街79號夏利里拉行地庫",
    "opening_hour":"",
    "play_schedule":"",
    "reservation":"",
    "min_charge":"",
    "special_event":""
    }
  },
  {
    "type": "Feature",
    "geometry": {
       "type": "Point",
       "coordinates":  [ 114.2228875,22.3134408 ]
    },
    "properties": {
    "district":"觀塘",
    "name":"SFALO",
    "phone":"26287878",
    "address":"九龍觀塘道398-402號嘉域大廈六樓",
    "opening_hour":"",
    "play_schedule":"",
    "reservation":"",
    "min_charge":"",
    "special_event":""
    }
  },
  {
    "type": "Feature",
    "geometry": {
       "type": "Point",
       "coordinates":  [ 114.1278529,22.2815906 ]
    },
    "properties": {
    "district":"西環",
    "name":"FORBES THIRTY SIX",
    "phone":"28135335",
    "address":"西環科士街36號",
    "opening_hour":"",
    "play_schedule":"",
    "reservation":"",
    "min_charge":"",
    "special_event":""
    }
  },
  {
    "type": "Feature",
    "geometry": {
       "type": "Point",
       "coordinates":  [ 114.1821601,22.2805414 ]
    },
    "properties": {
    "district":"銅鑼灣",
    "name":"澳門台山水佬榮火鍋專家",
    "phone":"28661111",
    "address":"鵝頸橋駱克道463-483號力寶商業大廈(銅鑼灣廣場二期)5樓全層",
    "opening_hour":"",
    "play_schedule":"",
    "reservation":"",
    "min_charge":"",
    "special_event":""
    }
  },
  {
    "type": "Feature",
    "geometry": {
       "type": "Point",
       "coordinates":  [ 114.18876,22.3039349 ]
    },
    "properties": {
    "district":"紅磡",
    "name":"BERLINER GERMAN BAR AND RESTAURANT",
    "phone":"22546178",
    "address":"紅磡黃埔新天地享膳坊(第4期)地下G10號舖",
    "opening_hour":"",
    "play_schedule":"",
    "reservation":"",
    "min_charge":"",
    "special_event":""
    }
  },
  {
    "type": "Feature",
    "geometry": {
       "type": "Point",
       "coordinates":  [ 114.162829,22.322002 ]
    },
    "properties": {
    "district":"大角咀",
    "name":"新錦園大排檔",
    "phone":"23931410",
    "address":"大角咀福全街63號大角咀市政大廈2樓",
    "opening_hour":"1100-1430,1800-0200",
    "play_schedule":"場場播",
    "reservation":"沒有",
    "min_charge":"沒有",
    "special_event":"沒有"
    }
  },
  {
    "type": "Feature",
    "geometry": {
       "type": "Point",
       "coordinates":  [ 114.1723208,22.2781961 ]
    },
    "properties": {
    "district":"灣仔",
    "name":"BAR 109",
    "phone":"28613336",
    "address":"灣仔駱克道109號",
    "opening_hour":"",
    "play_schedule":"",
    "reservation":"",
    "min_charge":"",
    "special_event":""
    }
  },
  {
    "type": "Feature",
    "geometry": {
       "type": "Point",
       "coordinates":  [ 114.1687442,22.3179137 ]
    },
    "properties": {
    "district":"旺角",
    "name":"THE SKY BAR",
    "phone":"35144448",
    "address":"旺角朗豪坊13樓1號舖",
    "opening_hour":"",
    "play_schedule":"",
    "reservation":"",
    "min_charge":"",
    "special_event":""
    }
  },
  {
    "type": "Feature",
    "geometry": {
       "type": "Point",
       "coordinates":  [ 114.1639538,22.4491749 ]
    },
    "properties": {
    "district":"大埔",
    "name":"LO BAR ",
    "phone":"找不到電話",
    "address":"新界大埔仁興街43-51號美昌大廈地下A舖",
    "opening_hour":"",
    "play_schedule":"",
    "reservation":"",
    "min_charge":"",
    "special_event":""
    }
  },
  {
    "type": "Feature",
    "geometry": {
       "type": "Point",
       "coordinates":  [ 114.1717682,22.2755622 ]
    },
    "properties": {
    "district":"灣仔",
    "name":"UTHAI",
    "phone":"找不到電話",
    "address":"灣仔夏門街717号 百旺都中心鋪C",
    "opening_hour":"",
    "play_schedule":"",
    "reservation":"",
    "min_charge":"",
    "special_event":""
    }
  },
  {
    "type": "Feature",
    "geometry": {
       "type": "Point",
       "coordinates":  [ 114.2512114,22.2659424 ]
    },
    "properties": {
    "district":"柴灣",
    "name":"VALERIE’S@ WATERFRONT RESTAURANT",
    "phone":"22485757",
    "address":"柴灣小西灣道28號藍灣廣場9B-9CC號鋪",
    "opening_hour":"",
    "play_schedule":"",
    "reservation":"",
    "min_charge":"",
    "special_event":""
    }
  },
  {
    "type": "Feature",
    "geometry": {
       "type": "Point",
       "coordinates":  [ 114.1524933,22.2821274 ]
    },
    "properties": {
    "district":"中環",
    "name":"THE SPOT BAR",
    "phone":"24165588",
    "address":"中環史丹頓街32號舖",
    "opening_hour":"",
    "play_schedule":"",
    "reservation":"",
    "min_charge":"",
    "special_event":""
    }
  },
  {
    "type": "Feature",
    "geometry": {
       "type": "Point",
       "coordinates":  [ 114.1741949,22.2979489 ]
    },
    "properties": {
    "district":"尖沙咀",
    "name":"彌敦左岸",
    "phone":"23691333",
    "address":"尖沙咀赫德道5-9號德裕中心B1層",
    "opening_hour":"",
    "play_schedule":"",
    "reservation":"",
    "min_charge":"",
    "special_event":""
    }
  },
  {
    "type": "Feature",
    "geometry": {
       "type": "Point",
       "coordinates":  [ 114.1809599,22.2790662 ]
    },
    "properties": {
    "district":"灣仔",
    "name":"春夏秋冬火鍋",
    "phone":"21171208/21171209",
    "address":"灣仔軒尼詩道418-430號友光大廈2樓",
    "opening_hour":"",
    "play_schedule":"",
    "reservation":"",
    "min_charge":"",
    "special_event":""
    }
  },
  {
    "type": "Feature",
    "geometry": {
       "type": "Point",
       "coordinates":  [ 114.1816445,22.2772714 ]
    },
    "properties": {
    "district":"銅鑼灣",
    "name":"ZERVE BAR AND BILLIARDS",
    "phone":"55028232",
    "address":"銅鑼灣耀華街38號 Zing! 9樓",
    "opening_hour":"",
    "play_schedule":"",
    "reservation":"",
    "min_charge":"",
    "special_event":""
    }
  },
  {
    "type": "Feature",
    "geometry": {
       "type": "Point",
       "coordinates":  [ 113.9422621,22.2921309 ]
    },
    "properties": {
    "district":"東涌",
    "name":"A TAVOLA",
    "phone":"23215500",
    "address":"東涌海濱路8號海堤灣畔地下E&F號舖",
    "opening_hour":"",
    "play_schedule":"",
    "reservation":"",
    "min_charge":"",
    "special_event":""
    }
  },
  {
    "type": "Feature",
    "geometry": {
       "type": "Point",
       "coordinates":  [ 114.1714088,22.277147 ]
    },
    "properties": {
    "district":"灣仔",
    "name":"AMAZONIA",
    "phone":"35792653",
    "address":"灣仔盧押道15號",
    "opening_hour":"",
    "play_schedule":"",
    "reservation":"",
    "min_charge":"",
    "special_event":""
    }
  },
  {
    "type": "Feature",
    "geometry": {
       "type": "Point",
       "coordinates":  [ 114.1693415,22.3259846 ]
    },
    "properties": {
    "district":"旺角",
    "name":"ASAKUSA LOUNGE III",
    "phone":"23983339",
    "address":"旺角 通菜街248-250號 通發大廈 地下 B舖",
    "opening_hour":"",
    "play_schedule":"",
    "reservation":"",
    "min_charge":"",
    "special_event":""
    }
  },
  {
    "type": "Feature",
    "geometry": {
       "type": "Point",
       "coordinates":  [ 113.9759698,22.3989482 ]
    },
    "properties": {
    "district":"屯門",
    "name":"AT BAR",
    "phone":"28137771",
    "address":"屯門新青街4號地下",
    "opening_hour":"",
    "play_schedule":"",
    "reservation":"",
    "min_charge":"",
    "special_event":""
    }
  },
  {
    "type": "Feature",
    "geometry": {
       "type": "Point",
       "coordinates":  [ 114.1758582,22.3010874 ]
    },
    "properties": {
    "district":"尖沙咀",
    "name":"CARNIVAL",
    "phone":"37053985",
    "address":"尖沙咀天文臺道8號6樓1號舖",
    "opening_hour":"",
    "play_schedule":"",
    "reservation":"",
    "min_charge":"",
    "special_event":""
    }
  },
  {
    "type": "Feature",
    "geometry": {
       "type": "Point",
       "coordinates":  [ 113.9781106,22.4027883 ]
    },
    "properties": {
    "district":"屯門",
    "name":"BARREL BAR & RESTAURANT",
    "phone":"28366148",
    "address":"屯門新墟井財街11A號南光樓",
    "opening_hour":"",
    "play_schedule":"",
    "reservation":"",
    "min_charge":"",
    "special_event":""
    }
  },
  {
    "type": "Feature",
    "geometry": {
       "type": "Point",
       "coordinates":  [ 114.178247,22.30079 ]
    },
    "properties": {
    "district":"尖沙咀",
    "name":"東方水匯桑拿",
    "phone":"27722880",
    "address":"尖沙咀東部加連威老道100號港晶中心地庫底層及部份地庫高層及部份地下",
    "opening_hour":"",
    "play_schedule":"",
    "reservation":"",
    "min_charge":"",
    "special_event":""
    }
  },
  {
    "type": "Feature",
    "geometry": {
       "type": "Point",
       "coordinates":  [ 114.1925354,22.2883548 ]
    },
    "properties": {
    "district":"北角",
    "name":"CALI MEX BAR & GRILL",
    "phone":"25112700",
    "address":"北角電氣道183號地下",
    "opening_hour":"",
    "play_schedule":"",
    "reservation":"",
    "min_charge":"",
    "special_event":""
    }
  },
  {
    "type": "Feature",
    "geometry": {
       "type": "Point",
       "coordinates":  [ 114.1780498,22.2792924 ]
    },
    "properties": {
    "district":"灣仔",
    "name":"BILLIDART RESTAURANT & BAR",
    "phone":"21443000",
    "address":"灣仔杜老誌道6號群策大廈8樓全層",
    "opening_hour":"",
    "play_schedule":"",
    "reservation":"",
    "min_charge":"",
    "special_event":""
    }
  },
  {
    "type": "Feature",
    "geometry": {
       "type": "Point",
       "coordinates":  [ 114.1167525,22.3700652 ]
    },
    "properties": {
    "district":"荃灣",
    "name":"凱撒桑拿",
    "phone":"55447750",
    "address":"荃灣眾安街55號大鴻輝中心19樓全層",
    "opening_hour":"",
    "play_schedule":"",
    "reservation":"",
    "min_charge":"",
    "special_event":""
    }
  },
  {
    "type": "Feature",
    "geometry": {
       "type": "Point",
       "coordinates":  [ 114.1271591,22.2830178 ]
    },
    "properties": {
    "district":"西環",
    "name":"CALI-MEX ",
    "phone":"28729500",
    "address":"西環堅尼地城吉席街70號",
    "opening_hour":"",
    "play_schedule":"",
    "reservation":"",
    "min_charge":"",
    "special_event":""
    }
  },
  {
    "type": "Feature",
    "geometry": {
       "type": "Point",
       "coordinates":  [ 114.152445,22.283034 ]
    },
    "properties": {
    "district":"中環",
    "name":"PAZZERIA ITALIAN BREWERY",
    "phone":"25407988",
    "address":"中環伊利近街5號",
    "opening_hour":"",
    "play_schedule":"",
    "reservation":"",
    "min_charge":"",
    "special_event":""
    }
  },
  {
    "type": "Feature",
    "geometry": {
       "type": "Point",
       "coordinates":  [ 114.1753096,22.2982093 ]
    },
    "properties": {
    "district":"尖沙咀",
    "name":"AT RESTAURANT & BAR",
    "phone":"23013201",
    "address":"尖沙咀漆咸道南33-35號友聯大廈1-2地舖",
    "opening_hour":"",
    "play_schedule":"",
    "reservation":"",
    "min_charge":"",
    "special_event":""
    }
  },
  {
    "type": "Feature",
    "geometry": {
       "type": "Point",
       "coordinates":  [ 114.0289398,22.4411516 ]
    },
    "properties": {
    "district":"元朗",
    "name":"AT BAR",
    "phone":"35903100",
    "address":"元朗西菁街23號富達廣場地下31號舖 ? ",
    "opening_hour":"",
    "play_schedule":"",
    "reservation":"",
    "min_charge":"",
    "special_event":""
    }
  },
  {
    "type": "Feature",
    "geometry": {
       "type": "Point",
       "coordinates":  [ 114.1734286,22.3012741 ]
    },
    "properties": {
    "district":"尖沙咀",
    "name":"大樹吧",
    "phone":"2721-1686",
    "address":"尖沙咀諾士佛臺 4 - 5號",
    "opening_hour":"",
    "play_schedule":"",
    "reservation":"",
    "min_charge":"",
    "special_event":""
    }
  },
  {
    "type": "Feature",
    "geometry": {
       "type": "Point",
       "coordinates":  [ 114.1693626,22.3230228 ]
    },
    "properties": {
    "district":"太子",
    "name":"CIRCLE BAR",
    "phone":"23933099",
    "address":"太子西洋菜南街246-248號永興隆大廈1樓",
    "opening_hour":"",
    "play_schedule":"",
    "reservation":"",
    "min_charge":"",
    "special_event":""
    }
  },
  {
    "type": "Feature",
    "geometry": {
       "type": "Point",
       "coordinates":  [ 114.174213,22.317876 ]
    },
    "properties": {
    "district":"旺角",
    "name":"蓋世堡",
    "phone":"27138099",
    "address":"旺角太平道3號B地下",
    "opening_hour":"",
    "play_schedule":"",
    "reservation":"",
    "min_charge":"",
    "special_event":""
    }
  },
  {
    "type": "Feature",
    "geometry": {
       "type": "Point",
       "coordinates":  [ 114.1752516,22.2985781 ]
    },
    "properties": {
    "district":"尖沙咀",
    "name":"COSMOS RESTAURANT & BAR",
    "phone":"29482828",
    "address":"尖沙咀寶勒巷27號號 地下東匯商業大廈",
    "opening_hour":"",
    "play_schedule":"",
    "reservation":"",
    "min_charge":"",
    "special_event":""
    }
  },
  {
    "type": "Feature",
    "geometry": {
       "type": "Point",
       "coordinates":  [ 114.179208,22.2778 ]
    },
    "properties": {
    "district":"灣仔",
    "name":"蒲點美式酒吧",
    "phone":"28923386",
    "address":"灣仔灣仔道209-219號銅鑼灣利景酒店地庫1樓",
    "opening_hour":"",
    "play_schedule":"",
    "reservation":"",
    "min_charge":"",
    "special_event":""
    }
  },
  {
    "type": "Feature",
    "geometry": {
       "type": "Point",
       "coordinates":  [ 114.159199,22.283009 ]
    },
    "properties": {
    "district":"中環",
    "name":"GRAPPA'S CELLAR",
    "phone":"25212322",
    "address":"中環康樂廣場1號怡和大廈地庫1號舖",
    "opening_hour":"",
    "play_schedule":"",
    "reservation":"",
    "min_charge":"",
    "special_event":""
    }
  },
  {
    "type": "Feature",
    "geometry": {
       "type": "Point",
       "coordinates":  [ 114.1557097,22.280673 ]
    },
    "properties": {
    "district":"中環",
    "name":"狗毛4",
    "phone":"31883938",
    "address":"中環蘭桂坊8-11號昌隆大廈3樓",
    "opening_hour":"",
    "play_schedule":"",
    "reservation":"",
    "min_charge":"",
    "special_event":""
    }
  },
  {
    "type": "Feature",
    "geometry": {
       "type": "Point",
       "coordinates":  [ 114.224628,22.279516 ]
    },
    "properties": {
    "district":"筲箕灣",
    "name":"FOCUS BAR",
    "phone":"21727790",
    "address":"筲箕灣新成街8號地下F舖",
    "opening_hour":"",
    "play_schedule":"",
    "reservation":"",
    "min_charge":"",
    "special_event":""
    }
  },
  {
    "type": "Feature",
    "geometry": {
       "type": "Point",
       "coordinates":  [ 114.160157,22.321187 ]
    },
    "properties": {
    "district":"大角咀",
    "name":"金百利餐廳",
    "phone":"2789-9286",
    "address":"大角咀角祥街43號",
    "opening_hour":"24小時",
    "play_schedule":"場場播",
    "reservation":"沒有",
    "min_charge":"$60-70/位",
    "special_event":"沒有"
    }
  },
  {
    "type": "Feature",
    "geometry": {
       "type": "Point",
       "coordinates":  [ 114.2035933,22.2910469 ]
    },
    "properties": {
    "district":"北角",
    "name":"東泰茶餐廳",
    "phone":"29110007(17/5再打)",
    "address":"北角七姊妹道106-110號號 地下富邦大廈",
    "opening_hour":"",
    "play_schedule":"",
    "reservation":"",
    "min_charge":"",
    "special_event":""
    }
  },
  {
    "type": "Feature",
    "geometry": {
       "type": "Point",
       "coordinates":  [ 114.1681425,22.3058779 ]
    },
    "properties": {
    "district":"佐敦",
    "name":"風彩餐廳",
    "phone":"25296388",
    "address":"九龍 佐 敦 道 41 號 瑞 香園 大廈 地下 A 鋪",
    "opening_hour":"24小時",
    "play_schedule":"場場播",
    "reservation":"沒有",
    "min_charge":"$70/位",
    "special_event":"沒有"
    }
  },
  {
    "type": "Feature",
    "geometry": {
       "type": "Point",
       "coordinates":  [ 114.1743807,22.2981376 ]
    },
    "properties": {
    "district":"尖沙咀",
    "name":"FATT'S PLACE",
    "phone":"34211144",
    "address":"尖沙咀赫德道2號",
    "opening_hour":"",
    "play_schedule":"",
    "reservation":"",
    "min_charge":"",
    "special_event":""
    }
  },
  {
    "type": "Feature",
    "geometry": {
       "type": "Point",
       "coordinates":  [ 114.1692486,22.3185003 ]
    },
    "properties": {
    "district":"旺角",
    "name":"金稻聯誼會",
    "phone":"23929666",
    "address":"旺角彌敦道655號胡社生行6樓",
    "opening_hour":"24小時",
    "play_schedule":"場場播",
    "reservation":"沒有",
    "min_charge":"未知",
    "special_event":"沒有"
    }
  },
  {
    "type": "Feature",
    "geometry": {
       "type": "Point",
       "coordinates":  [ 114.2111722,22.2187421 ]
    },
    "properties": {
    "district":"赤柱",
    "name":"CALI-MEX",
    "phone":"28667322",
    "address":"赤柱赤柱大街90號",
    "opening_hour":"",
    "play_schedule":"",
    "reservation":"",
    "min_charge":"",
    "special_event":""
    }
  },
  {
    "type": "Feature",
    "geometry": {
       "type": "Point",
       "coordinates":  [ 114.176811,22.298081 ]
    },
    "properties": {
    "district":"尖沙咀",
    "name":"CLUB STAR",
    "phone":"2721-7966",
    "address":"尖沙咀麼地道63號好時中心3/F 1, 2, 13-15號",
    "opening_hour":"",
    "play_schedule":"",
    "reservation":"",
    "min_charge":"",
    "special_event":""
    }
  },
  {
    "type": "Feature",
    "geometry": {
       "type": "Point",
       "coordinates":  [ 114.1725668,22.3175253 ]
    },
    "properties": {
    "district":"旺角",
    "name":"PAZZERIA ITALIAN BREWERY",
    "phone":"25060016",
    "address":"旺角黑布街19號地舖",
    "opening_hour":"",
    "play_schedule":"",
    "reservation":"",
    "min_charge":"",
    "special_event":""
    }
  },
  {
    "type": "Feature",
    "geometry": {
       "type": "Point",
       "coordinates":  [ 114.1687866,22.3259778 ]
    },
    "properties": {
    "district":"旺角",
    "name":"HOUSE EUROPE BAR & GRILL",
    "phone":"23987368",
    "address":"太子西洋菜街北314號地舖",
    "opening_hour":"",
    "play_schedule":"",
    "reservation":"",
    "min_charge":"",
    "special_event":""
    }
  },
  {
    "type": "Feature",
    "geometry": {
       "type": "Point",
       "coordinates":  [ 114.19161,22.302289 ]
    },
    "properties": {
    "district":"紅磡",
    "name":"WATERFRONT BAR & TERRACE 水雲間",
    "phone":"29968455",
    "address":"紅磡德豐街18號海濱廣場一期地下",
    "opening_hour":"",
    "play_schedule":"",
    "reservation":"",
    "min_charge":"",
    "special_event":""
    }
  },
  {
    "type": "Feature",
    "geometry": {
       "type": "Point",
       "coordinates":  [ 114.1829961,22.2809329 ]
    },
    "properties": {
    "district":"銅鑼灣",
    "name":"BREEZE",
    "phone":"94693389",
    "address":"銅鑼灣謝菲道 496 號金利文廣場18樓",
    "opening_hour":"",
    "play_schedule":"",
    "reservation":"",
    "min_charge":"",
    "special_event":""
    }
  },
  {
    "type": "Feature",
    "geometry": {
       "type": "Point",
       "coordinates":  [ 114.1707464,22.278012 ]
    },
    "properties": {
    "district":"灣仔",
    "name":"THE WHITE STAG",
    "phone":"28664244",
    "address":"灣仔駱克道52號地下",
    "opening_hour":"",
    "play_schedule":"",
    "reservation":"",
    "min_charge":"",
    "special_event":""
    }
  },
  {
    "type": "Feature",
    "geometry": {
       "type": "Point",
       "coordinates":  [ 114.2097266,22.3288811 ]
    },
    "properties": {
    "district":"九龍灣",
    "name":"正記冰室",
    "phone":"26980628",
    "address":"九龍灣啟業道18號啟業商場地下啟業市場5號舖",
    "opening_hour":"0630-0030",
    "play_schedule":"場場播",
    "reservation":"沒有",
    "min_charge":"未定,5月底睇FB",
    "special_event":"未定,5月底睇FB"
    }
  },
  {
    "type": "Feature",
    "geometry": {
       "type": "Point",
       "coordinates":  [ 114.1614986,22.4511347 ]
    },
    "properties": {
    "district":"大埔",
    "name":"正記冰室",
    "phone":"26222323",
    "address":"太和太和路12號太和廣場1樓太和街市1號舖",
    "opening_hour":"0630-0100",
    "play_schedule":"場場播",
    "reservation":"沒有",
    "min_charge":"未定,5月底睇FB",
    "special_event":"未定,5月底睇FB"
    }
  },
  {
    "type": "Feature",
    "geometry": {
       "type": "Point",
       "coordinates":  [ 114.1702704,22.3189496 ]
    },
    "properties": {
    "district":"旺角",
    "name":"JOE'S BILLIARDS & BAR",
    "phone":"31883818",
    "address":"旺角西洋菜南街74-84號旺角城市中心5樓",
    "opening_hour":"",
    "play_schedule":"",
    "reservation":"",
    "min_charge":"",
    "special_event":""
    }
  },
  {
    "type": "Feature",
    "geometry": {
       "type": "Point",
       "coordinates":  [ 114.1730477,22.3010904 ]
    },
    "properties": {
    "district":"尖沙咀",
    "name":"JOE'S BILLIARDS & BAR",
    "phone":"31881010",
    "address":"尖沙咀諾士佛臺1號11-12樓",
    "opening_hour":"",
    "play_schedule":"",
    "reservation":"",
    "min_charge":"",
    "special_event":""
    }
  },
  {
    "type": "Feature",
    "geometry": {
       "type": "Point",
       "coordinates":  [ 114.1705067,22.3104434 ]
    },
    "properties": {
    "district":"油麻地",
    "name":"JOE'S BILLIARDS & BAR",
    "phone":"37010909",
    "address":"油麻地廟街50號王子酒店1樓",
    "opening_hour":"",
    "play_schedule":"",
    "reservation":"",
    "min_charge":"",
    "special_event":""
    }
  },
  {
    "type": "Feature",
    "geometry": {
       "type": "Point",
       "coordinates":  [ 114.169026,22.325949 ]
    },
    "properties": {
    "district":"旺角",
    "name":"K-BUS PARLOR",
    "phone":"23092232",
    "address":"旺角通菜街223A號地下",
    "opening_hour":"",
    "play_schedule":"",
    "reservation":"",
    "min_charge":"",
    "special_event":""
    }
  },
  {
    "type": "Feature",
    "geometry": {
       "type": "Point",
       "coordinates":  [ 114.1554791,22.2810799 ]
    },
    "properties": {
    "district":"中環",
    "name":"CIAO CHOW - ITALIAN CAFETERIA",
    "phone":"23440005",
    "address":"中環蘭桂坊德己立街30-32號加州大廈地舖",
    "opening_hour":"",
    "play_schedule":"",
    "reservation":"",
    "min_charge":"",
    "special_event":""
    }
  },
  {
    "type": "Feature",
    "geometry": {
       "type": "Point",
       "coordinates":  [ 114.170176,22.304663 ]
    },
    "properties": {
    "district":"油麻地",
    "name":"皇雀會",
    "phone":"27367222",
    "address":"佐敦吳松街136-142號金淞大廈1至3樓",
    "opening_hour":"",
    "play_schedule":"",
    "reservation":"",
    "min_charge":"",
    "special_event":""
    }
  },
  {
    "type": "Feature",
    "geometry": {
       "type": "Point",
       "coordinates":  [ 114.1286531,22.3557206 ]
    },
    "properties": {
    "district":"葵芳",
    "name":"皇雀會",
    "phone":"24206229",
    "address":"葵芳葵義路15號葵芳閣地下E,F,I舖",
    "opening_hour":"",
    "play_schedule":"",
    "reservation":"",
    "min_charge":"",
    "special_event":""
    }
  },
  {
    "type": "Feature",
    "geometry": {
       "type": "Point",
       "coordinates":  [ 114.1157439,22.3684142 ]
    },
    "properties": {
    "district":"荃灣",
    "name":"皇雀會",
    "phone":"24127827",
    "address":"荃灣眾安街103-117號1至2樓",
    "opening_hour":"",
    "play_schedule":"",
    "reservation":"",
    "min_charge":"",
    "special_event":""
    }
  },
  {
    "type": "Feature",
    "geometry": {
       "type": "Point",
       "coordinates":  [ 114.1177846,22.3711759 ]
    },
    "properties": {
    "district":"荃灣",
    "name":"歌德美式餐廳酒吧",
    "phone":"24111905",
    "address":"荃灣眾安街26-40號合眾大廈1樓",
    "opening_hour":"",
    "play_schedule":"",
    "reservation":"",
    "min_charge":"",
    "special_event":""
    }
  },
  {
    "type": "Feature",
    "geometry": {
       "type": "Point",
       "coordinates":  [ 114.1721282,22.3190055 ]
    },
    "properties": {
    "district":"旺角",
    "name":"皇雀會 (歌德餐廳酒吧)",
    "phone":"27873838",
    "address":"旺角洗衣街74號得寶大廈3樓",
    "opening_hour":"1800-0500",
    "play_schedule":"場場播",
    "reservation":"可以訂位",
    "min_charge":"$220(包兩杯飲品)",
    "special_event":"沒有"
    }
  },
  {
    "type": "Feature",
    "geometry": {
       "type": "Point",
       "coordinates":  [ 114.1888482,22.3014425 ]
    },
    "properties": {
    "district":"紅磡",
    "name":"百味村",
    "phone":"22525228",
    "address":"紅磡紅鸞道38號香港嘉里酒店1樓",
    "opening_hour":"",
    "play_schedule":"",
    "reservation":"",
    "min_charge":"",
    "special_event":""
    }
  },
  {
    "type": "Feature",
    "geometry": {
       "type": "Point",
       "coordinates":  [ 114.1737073,22.3049796 ]
    },
    "properties": {
    "district":"油麻地",
    "name":"九龍木球會",
    "phone":"34737000",
    "address":"九龍覺士道10號",
    "opening_hour":"",
    "play_schedule":"",
    "reservation":"",
    "min_charge":"",
    "special_event":""
    }
  },
  {
    "type": "Feature",
    "geometry": {
       "type": "Point",
       "coordinates":  [ 114.1790251,22.3769253 ]
    },
    "properties": {
    "district":"大圍",
    "name":"338 PUB",
    "phone":"34867039",
    "address":"大圍積存街82-86號年豐樓地下C舖",
    "opening_hour":"",
    "play_schedule":"",
    "reservation":"",
    "min_charge":"",
    "special_event":""
    }
  },
  {
    "type": "Feature",
    "geometry": {
       "type": "Point",
       "coordinates":  [ 114.194484,22.290649 ]
    },
    "properties": {
    "district":"北角",
    "name":"薀莎水療 (PR 麥先生 36982322)",
    "phone":"36980000",
    "address":"北角英皇道250號北角城市中心二樓",
    "opening_hour":"",
    "play_schedule":"",
    "reservation":"",
    "min_charge":"",
    "special_event":""
    }
  },
  {
    "type": "Feature",
    "geometry": {
       "type": "Point",
       "coordinates":  [ 114.1753255,22.2979577 ]
    },
    "properties": {
    "district":"尖沙咀",
    "name":"狗毛易II",
    "phone":"27237228",
    "address":"尖沙咀漆咸道南29-31號溫莎大廈地下7號舖",
    "opening_hour":"",
    "play_schedule":"",
    "reservation":"",
    "min_charge":"",
    "special_event":""
    }
  },
  {
    "type": "Feature",
    "geometry": {
       "type": "Point",
       "coordinates":  [ 114.1745201,22.2981593 ]
    },
    "properties": {
    "district":"尖沙咀",
    "name":"狗毛吧",
    "phone":"23111248",
    "address":"尖沙咀赫德道2A號首邦行地下4號舖",
    "opening_hour":"",
    "play_schedule":"",
    "reservation":"",
    "min_charge":"",
    "special_event":""
    }
  },
  {
    "type": "Feature",
    "geometry": {
       "type": "Point",
       "coordinates":  [ 113.980356,22.385339 ]
    },
    "properties": {
    "district":"屯門",
    "name":"MEGA-1",
    "phone":"26141982",
    "address":"屯門青山公路345號龍成花園地下B舖",
    "opening_hour":"",
    "play_schedule":"",
    "reservation":"",
    "min_charge":"",
    "special_event":""
    }
  },
  {
    "type": "Feature",
    "geometry": {
       "type": "Point",
       "coordinates":  [ 114.1741949,22.2979489 ]
    },
    "properties": {
    "district":"尖沙咀",
    "name":"MALTY",
    "phone":"27212922",
    "address":"尖沙咀赫德道5-9號德裕中心地下9及10號舖",
    "opening_hour":"",
    "play_schedule":"",
    "reservation":"",
    "min_charge":"",
    "special_event":""
    }
  },
  {
    "type": "Feature",
    "geometry": {
       "type": "Point",
       "coordinates":  [ 114.171235,22.27779 ]
    },
    "properties": {
    "district":"灣仔",
    "name":"THE DOG HOUSE",
    "phone":"25280868",
    "address":"灣仔駱克道72-86號熙華大廈地下A3號舖",
    "opening_hour":"",
    "play_schedule":"",
    "reservation":"",
    "min_charge":"",
    "special_event":""
    }
  },
  {
    "type": "Feature",
    "geometry": {
       "type": "Point",
       "coordinates":  [ 114.2716414,22.3810889 ]
    },
    "properties": {
    "district":"西貢",
    "name":"CALI-MEX BAR AND GRILL",
    "phone":"27721155",
    "address":"西貢灣景街22號",
    "opening_hour":"",
    "play_schedule":"",
    "reservation":"",
    "min_charge":"",
    "special_event":""
    }
  },
  {
    "type": "Feature",
    "geometry": {
       "type": "Point",
       "coordinates":  [ 114.115573,22.372754 ]
    },
    "properties": {
    "district":"荃灣",
    "name":"海雀會新烽火鍋小廚",
    "phone":"24138896",
    "address":"荃灣路德圍36號安富大廈1樓",
    "opening_hour":"24小時",
    "play_schedule":"場場播",
    "reservation":"可以訂位",
    "min_charge":"$100/位起(Book房會再加錢)",
    "special_event":"未決定"
    }
  },
  {
    "type": "Feature",
    "geometry": {
       "type": "Point",
       "coordinates":  [ 114.172475,22.30009 ]
    },
    "properties": {
    "district":"尖沙咀",
    "name":"ROOM ONE BAR & LOUNGE",
    "phone":"23155888",
    "address":"尖沙咀彌敦道118號美麗華廣場The Mira Hong Kong 地下大堂",
    "opening_hour":"",
    "play_schedule":"",
    "reservation":"",
    "min_charge":"",
    "special_event":""
    }
  },
  {
    "type": "Feature",
    "geometry": {
       "type": "Point",
       "coordinates":  [ 114.1566345,22.2821589 ]
    },
    "properties": {
    "district":"中環",
    "name":"SPIGA",
    "phone":"28710055",
    "address":"中環皇后大道中31號陸海通大廈3樓???????",
    "opening_hour":"",
    "play_schedule":"",
    "reservation":"",
    "min_charge":"",
    "special_event":""
    }
  },
  {
    "type": "Feature",
    "geometry": {
       "type": "Point",
       "coordinates":  [ 114.1761456,22.3018269 ]
    },
    "properties": {
    "district":"尖沙咀",
    "name":"M ZONE GAROSU",
    "phone":"35857343",
    "address":"尖沙咀漆咸圍9-11號若璠閣地下",
    "opening_hour":"",
    "play_schedule":"",
    "reservation":"",
    "min_charge":"",
    "special_event":""
    }
  },
  {
    "type": "Feature",
    "geometry": {
       "type": "Point",
       "coordinates":  [ 114.181626,22.2772905 ]
    },
    "properties": {
    "district":"銅鑼灣",
    "name":"CHERRY",
    "phone":"",
    "address":"銅鑼灣耀華街38號12/F",
    "opening_hour":"",
    "play_schedule":"",
    "reservation":"",
    "min_charge":"",
    "special_event":""
    }
  },
  {
    "type": "Feature",
    "geometry": {
       "type": "Point",
       "coordinates":  [ 114.1869438,22.2752975 ]
    },
    "properties": {
    "district":"銅鑼灣",
    "name":"INN SIDE OUT",
    "phone":"28952900",
    "address":"銅鑼灣加路連山道88號",
    "opening_hour":"",
    "play_schedule":"",
    "reservation":"",
    "min_charge":"",
    "special_event":""
    }
  },
  {
    "type": "Feature",
    "geometry": {
       "type": "Point",
       "coordinates":  [ 114.1386287,22.3702178 ]
    },
    "properties": {
    "district":"葵涌",
    "name":"新金豐餐廳",
    "phone":"24254550",
    "address":"葵涌石蔭路113號地下",
    "opening_hour":"17/5之後先CONFIRM",
    "play_schedule":"",
    "reservation":"",
    "min_charge":"",
    "special_event":""
    }
  },
  {
    "type": "Feature",
    "geometry": {
       "type": "Point",
       "coordinates":  [ 114.175316,22.298171 ]
    },
    "properties": {
    "district":"尖沙咀",
    "name":"TEQUILA JACK'S",
    "phone":"34285133",
    "address":"尖沙咀漆咸道南33～35號友聯大廈地下7-8號舖",
    "opening_hour":"",
    "play_schedule":"",
    "reservation":"",
    "min_charge":"",
    "special_event":""
    }
  },
  {
    "type": "Feature",
    "geometry": {
       "type": "Point",
       "coordinates":  [ 114.1795825,22.2781791 ]
    },
    "properties": {
    "district":"灣仔",
    "name":"雅苑餐廳 ",
    "phone":"2572-2806",
    "address":"灣仔天樂里6號地下",
    "opening_hour":"0700-0000",
    "play_schedule":"場場播",
    "reservation":"可以訂位",
    "min_charge":"五月底才知",
    "special_event":"五月底才知"
    }
  },
  {
    "type": "Feature",
    "geometry": {
       "type": "Point",
       "coordinates":  [ 114.1604472,22.3357802 ]
    },
    "properties": {
    "district":"長沙灣",
    "name":"OVERTIME BAR",
    "phone":"28662722",
    "address":"長沙灣順寧道47號嘉寧閣地下B舖",
    "opening_hour":"",
    "play_schedule":"",
    "reservation":"",
    "min_charge":"",
    "special_event":""
    }
  },
  {
    "type": "Feature",
    "geometry": {
       "type": "Point",
       "coordinates":  [ 114.169598,22.324766 ]
    },
    "properties": {
    "district":"旺角",
    "name":"PENTHOUSE ",
    "phone":"21678381",
    "address":"太子通菜街216號",
    "opening_hour":"",
    "play_schedule":"",
    "reservation":"",
    "min_charge":"",
    "special_event":""
    }
  },
  {
    "type": "Feature",
    "geometry": {
       "type": "Point",
       "coordinates":  [ 114.169579,22.325019 ]
    },
    "properties": {
    "district":"旺角",
    "name":"B C LOUNGE",
    "phone":"23982138",
    "address":"太子通菜街224號",
    "opening_hour":"",
    "play_schedule":"",
    "reservation":"",
    "min_charge":"",
    "special_event":""
    }
  },
  {
    "type": "Feature",
    "geometry": {
       "type": "Point",
       "coordinates":  [ 114.1693415,22.3259846 ]
    },
    "properties": {
    "district":"旺角",
    "name":"QUARTER BAR",
    "phone":"23818668",
    "address":"太子通菜街248-250號通發大廈地下A舖",
    "opening_hour":"",
    "play_schedule":"",
    "reservation":"",
    "min_charge":"",
    "special_event":""
    }
  },
  {
    "type": "Feature",
    "geometry": {
       "type": "Point",
       "coordinates":  [ 114.152601,22.282329 ]
    },
    "properties": {
    "district":"中環",
    "name":"QUENCH Bar",
    "phone":"25377277",
    "address":"中環士丹頓街49號地鋪",
    "opening_hour":"",
    "play_schedule":"",
    "reservation":"",
    "min_charge":"",
    "special_event":""
    }
  },
  {
    "type": "Feature",
    "geometry": {
       "type": "Point",
       "coordinates":  [ 114.155456,22.2812329 ]
    },
    "properties": {
    "district":"中環",
    "name":"CALI MEX",
    "phone":"29703877",
    "address":"中環德己立街21號G/F",
    "opening_hour":"",
    "play_schedule":"",
    "reservation":"",
    "min_charge":"",
    "special_event":""
    }
  },
  {
    "type": "Feature",
    "geometry": {
       "type": "Point",
       "coordinates":  [ 114.1848654,22.2798863 ]
    },
    "properties": {
    "district":"銅鑼灣",
    "name":"RED POCKET",
    "phone":"28948678",
    "address":"銅鑼灣銅鑼灣怡和街2-6號英光大廈6樓",
    "opening_hour":"",
    "play_schedule":"",
    "reservation":"",
    "min_charge":"",
    "special_event":""
    }
  },
  {
    "type": "Feature",
    "geometry": {
       "type": "Point",
       "coordinates":  [ 114.1522086,22.2859739 ]
    },
    "properties": {
    "district":"上環",
    "name":"CALI-MEX BAR & GRILL",
    "phone":"24692881",
    "address":"上環永樂街77號地下",
    "opening_hour":"",
    "play_schedule":"",
    "reservation":"",
    "min_charge":"",
    "special_event":""
    }
  },
  {
    "type": "Feature",
    "geometry": {
       "type": "Point",
       "coordinates":  [ 113.9806429,22.3859158 ]
    },
    "properties": {
    "district":"屯門",
    "name":"ROYAL CASTLE PUB & CAFE",
    "phone":"24401123",
    "address":"屯門青山公路351號彩華花園地下1號舖",
    "opening_hour":"",
    "play_schedule":"",
    "reservation":"",
    "min_charge":"",
    "special_event":""
    }
  },
  {
    "type": "Feature",
    "geometry": {
       "type": "Point",
       "coordinates":  [ 114.1818234,22.2773357 ]
    },
    "properties": {
    "district":"銅鑼灣",
    "name":"RUGGERS",
    "phone":"21522117",
    "address":"銅鑼灣耀華街28號地下",
    "opening_hour":"",
    "play_schedule":"",
    "reservation":"",
    "min_charge":"",
    "special_event":""
    }
  },
  {
    "type": "Feature",
    "geometry": {
       "type": "Point",
       "coordinates":  [ 114.1696201,22.3168722 ]
    },
    "properties": {
    "district":"旺角",
    "name":"銀泉芬蘭浴室",
    "phone":"23324565",
    "address":"旺角彌敦道607號新興大廈高層地庫",
    "opening_hour":"",
    "play_schedule":"",
    "reservation":"",
    "min_charge":"",
    "special_event":""
    }
  },
  {
    "type": "Feature",
    "geometry": {
       "type": "Point",
       "coordinates":  [ 114.1746594,22.2979629 ]
    },
    "properties": {
    "district":"尖沙咀",
    "name":"THE OLD MONK BAR & GRILL",
    "phone":"23531271",
    "address":"尖沙咀赫德道4號The Hart地舖",
    "opening_hour":"",
    "play_schedule":"",
    "reservation":"",
    "min_charge":"",
    "special_event":""
    }
  },
  {
    "type": "Feature",
    "geometry": {
       "type": "Point",
       "coordinates":  [ 114.1777717,22.2976839 ]
    },
    "properties": {
    "district":"尖沙咀",
    "name":"LONDON HOUSE",
    "phone":"36503333",
    "address":"尖沙咀麼地道66號尖沙咀中心G5",
    "opening_hour":"",
    "play_schedule":"",
    "reservation":"",
    "min_charge":"",
    "special_event":""
    }
  },
  {
    "type": "Feature",
    "geometry": {
       "type": "Point",
       "coordinates":  [ 114.1738174,22.3005115 ]
    },
    "properties": {
    "district":"尖沙咀",
    "name":"嘉臨水療會",
    "phone":"27237333",
    "address":"九龍尖沙嘴金巴利道君怡酒店B1",
    "opening_hour":"",
    "play_schedule":"",
    "reservation":"",
    "min_charge":"",
    "special_event":""
    }
  },
  {
    "type": "Feature",
    "geometry": {
       "type": "Point",
       "coordinates":  [ 114.173331,22.301066 ]
    },
    "properties": {
    "district":"尖沙咀",
    "name":"擂台",
    "phone":"25585526",
    "address":"尖沙咀諾士佛臺10-11號6樓",
    "opening_hour":"",
    "play_schedule":"",
    "reservation":"",
    "min_charge":"",
    "special_event":""
    }
  },
  {
    "type": "Feature",
    "geometry": {
       "type": "Point",
       "coordinates":  [ 114.1789969,22.3006766 ]
    },
    "properties": {
    "district":"尖沙咀",
    "name":"舞臺",
    "phone":"61231011",
    "address":"科學館道14號新文華中心B1、B3-4",
    "opening_hour":"",
    "play_schedule":"",
    "reservation":"",
    "min_charge":"",
    "special_event":""
    }
  },
  {
    "type": "Feature",
    "geometry": {
       "type": "Point",
       "coordinates":  [ 114.1745632,22.2977973 ]
    },
    "properties": {
    "district":"尖沙咀",
    "name":"AT LUX",
    "phone":"37059088",
    "address":"尖沙咀赫德道19-23號地下及1樓A及B號舖",
    "opening_hour":"",
    "play_schedule":"",
    "reservation":"",
    "min_charge":"",
    "special_event":""
    }
  },
  {
    "type": "Feature",
    "geometry": {
       "type": "Point",
       "coordinates":  [ 114.1622121,22.3283514 ]
    },
    "properties": {
    "district":"深水埗",
    "name":"天鵝湖桑拿",
    "phone":"23618119",
    "address":"南昌街81-95號南昌中心6號地舖",
    "opening_hour":"",
    "play_schedule":"",
    "reservation":"",
    "min_charge":"",
    "special_event":""
    }
  },
  {
    "type": "Feature",
    "geometry": {
       "type": "Point",
       "coordinates":  [ 114.160116,22.335429 ]
    },
    "properties": {
    "district":"深水埗",
    "name":"大煲皇煮廚",
    "phone":"23808899",
    "address":"長沙灣青山道155-181號天悅廣場地下CA6號舖",
    "opening_hour":"",
    "play_schedule":"",
    "reservation":"",
    "min_charge":"",
    "special_event":""
    }
  },
  {
    "type": "Feature",
    "geometry": {
       "type": "Point",
       "coordinates":  [ 114.2302798,22.279793 ]
    },
    "properties": {
    "district":"筲箕灣",
    "name":"THAI ONE ",
    "phone":"28800069",
    "address":"筲箕灣東大街135號地舖",
    "opening_hour":"等老闆傾完, 待覆",
    "play_schedule":"",
    "reservation":"",
    "min_charge":"",
    "special_event":""
    }
  },
  {
    "type": "Feature",
    "geometry": {
       "type": "Point",
       "coordinates":  [ 114.1922847,22.3841796 ]
    },
    "properties": {
    "district":"沙田",
    "name":"泰華餐廳",
    "phone":"26062393",
    "address":"沙田瀝源街7號娛樂城地下1A",
    "opening_hour":"24小時",
    "play_schedule":"場場播",
    "reservation":"沒有",
    "min_charge":"沒有",
    "special_event":"沒有"
    }
  },
  {
    "type": "Feature",
    "geometry": {
       "type": "Point",
       "coordinates":  [ 114.1684525,22.3259631 ]
    },
    "properties": {
    "district":"太子",
    "name":"THE BREWERY",
    "phone":"23387720",
    "address":"太子西洋菜北街171-173號地下",
    "opening_hour":"",
    "play_schedule":"",
    "reservation":"",
    "min_charge":"",
    "special_event":""
    }
  },
  {
    "type": "Feature",
    "geometry": {
       "type": "Point",
       "coordinates":  [ 114.1737821,22.278086 ]
    },
    "properties": {
    "district":"灣仔",
    "name":"DEVIL'S ADVOCATE",
    "phone":"28657271",
    "address":"灣仔駱克道48-50號地下E及F號舖",
    "opening_hour":"",
    "play_schedule":"",
    "reservation":"",
    "min_charge":"",
    "special_event":""
    }
  },
  {
    "type": "Feature",
    "geometry": {
       "type": "Point",
       "coordinates":  [ 114.1560812,22.2803529 ]
    },
    "properties": {
    "district":"中環",
    "name":"香港外國記者會",
    "phone":"25211511",
    "address":"中環下亞厘畢道2號地下",
    "opening_hour":"",
    "play_schedule":"",
    "reservation":"",
    "min_charge":"",
    "special_event":""
    }
  },
  {
    "type": "Feature",
    "geometry": {
       "type": "Point",
       "coordinates":  [ 114.1610062,22.281444 ]
    },
    "properties": {
    "district":"中環",
    "name":"THE HONG KONG CLUB",
    "phone":"29789500",
    "address":"中環遮打道3號A  3樓",
    "opening_hour":"",
    "play_schedule":"",
    "reservation":"",
    "min_charge":"",
    "special_event":""
    }
  },
  {
    "type": "Feature",
    "geometry": {
       "type": "Point",
       "coordinates":  [ 114.205262,22.401109 ]
    },
    "properties": {
    "district":"沙田",
    "name":"吉澳閣",
    "phone":"29666540",
    "address":"沙田馬場5樓會所",
    "opening_hour":"",
    "play_schedule":"",
    "reservation":"",
    "min_charge":"",
    "special_event":""
    }
  },
  {
    "type": "Feature",
    "geometry": {
       "type": "Point",
       "coordinates":  [ 114.2244856,22.30964 ]
    },
    "properties": {
    "district":"觀塘",
    "name":"THE STADIUM",
    "phone":"25093388/93119939",
    "address":"觀塘興業街4號The Wave 4樓",
    "opening_hour":"",
    "play_schedule":"",
    "reservation":"",
    "min_charge":"",
    "special_event":""
    }
  },
  {
    "type": "Feature",
    "geometry": {
       "type": "Point",
       "coordinates":  [ 114.1739859,22.3013607 ]
    },
    "properties": {
    "district":"尖沙咀",
    "name":"BALALAIKA",
    "phone":"23126222",
    "address":"尖沙咀諾士佛臺10號2樓",
    "opening_hour":"",
    "play_schedule":"",
    "reservation":"",
    "min_charge":"",
    "special_event":""
    }
  },
  {
    "type": "Feature",
    "geometry": {
       "type": "Point",
       "coordinates":  [ 114.1714779,22.2787361 ]
    },
    "properties": {
    "district":"灣仔",
    "name":"JOE BANANAS",
    "phone":"25374618",
    "address":"灣仔盧押道23號 The Phoenix Building 地下",
    "opening_hour":"",
    "play_schedule":"",
    "reservation":"",
    "min_charge":"",
    "special_event":""
    }
  },
  {
    "type": "Feature",
    "geometry": {
       "type": "Point",
       "coordinates":  [ 114.192142,22.281624 ]
    },
    "properties": {
    "district":"天后",
    "name":"MALTY (TAI HANG)",
    "phone":"25108800",
    "address":"天后銅鑼灣道166號地下",
    "opening_hour":"",
    "play_schedule":"",
    "reservation":"",
    "min_charge":"",
    "special_event":""
    }
  },
  {
    "type": "Feature",
    "geometry": {
       "type": "Point",
       "coordinates":  [ 114.2020143,22.2924729 ]
    },
    "properties": {
    "district":"北角",
    "name":"MALTY (NORTH POINT)",
    "phone":"28800282",
    "address":"北角渣華道188-194僑華大廈地下",
    "opening_hour":"",
    "play_schedule":"",
    "reservation":"",
    "min_charge":"",
    "special_event":""
    }
  },
  {
    "type": "Feature",
    "geometry": {
       "type": "Point",
       "coordinates":  [ 114.1721508,22.2781392 ]
    },
    "properties": {
    "district":"灣仔",
    "name":"PLAYERS",
    "phone":"22940388",
    "address":"灣仔 駱克道93-107號利臨大廈地下A-B號舖",
    "opening_hour":"",
    "play_schedule":"",
    "reservation":"",
    "min_charge":"",
    "special_event":""
    }
  },
  {
    "type": "Feature",
    "geometry": {
       "type": "Point",
       "coordinates":  [ 114.175219,22.306055 ]
    },
    "properties": {
    "district":"油麻地",
    "name":"三軍會",
    "phone":"23670672",
    "address":"油麻地加士居道1號",
    "opening_hour":"",
    "play_schedule":"",
    "reservation":"",
    "min_charge":"",
    "special_event":""
    }
  },
  {
    "type": "Feature",
    "geometry": {
       "type": "Point",
       "coordinates":  [ 114.0166047,22.3081051 ]
    },
    "properties": {
    "district":"愉景灣",
    "name":"CALI-MEX",
    "phone":"26525525",
    "address":"愉景灣愉景北商場地下G12號舖",
    "opening_hour":"",
    "play_schedule":"",
    "reservation":"",
    "min_charge":"",
    "special_event":""
    }
  },
  {
    "type": "Feature",
    "geometry": {
       "type": "Point",
       "coordinates":  [ 114.1730297,22.2996964 ]
    },
    "properties": {
    "district":"尖沙咀",
    "name":"CALI-MEX",
    "phone":"29047698",
    "address":"尖沙咀加連威老道14號",
    "opening_hour":"",
    "play_schedule":"",
    "reservation":"",
    "min_charge":"",
    "special_event":""
    }
  },
  {
    "type": "Feature",
    "geometry": {
       "type": "Point",
       "coordinates":  [ 114.1732301,22.3011939 ]
    },
    "properties": {
    "district":"尖沙咀",
    "name":"CLUB SOSO",
    "phone":"90545050",
    "address":"尖沙咀諾仕佛臺1號10樓",
    "opening_hour":"",
    "play_schedule":"",
    "reservation":"",
    "min_charge":"",
    "special_event":""
    }
  },
  {
    "type": "Feature",
    "geometry": {
       "type": "Point",
       "coordinates":  [ 114.1768211,22.2974391 ]
    },
    "properties": {
    "district":"尖沙咀",
    "name":"SPASSO ITALIAN BAR & RESTAURANT",
    "phone":"27308027",
    "address":"尖沙咀麼地道68號帝國中心G5-8號舖",
    "opening_hour":"",
    "play_schedule":"",
    "reservation":"",
    "min_charge":"",
    "special_event":""
    }
  },
  {
    "type": "Feature",
    "geometry": {
       "type": "Point",
       "coordinates":  [ 114.166289,22.446879 ]
    },
    "properties": {
    "district":"大埔",
    "name":"華輝小廚",
    "phone":"26566420",
    "address":"大埔鄉事會坊17號地舖",
    "opening_hour":"24小時",
    "play_schedule":"場場播",
    "reservation":"沒有",
    "min_charge":"未決定",
    "special_event":"沒有"
    }
  },
  {
    "type": "Feature",
    "geometry": {
       "type": "Point",
       "coordinates":  [ 114.1747291,22.2968838 ]
    },
    "properties": {
    "district":"尖沙咀",
    "name":"新海鯨吧",
    "phone":"37051633",
    "address":"尖沙咀 棉 登 徑 13-15 號 2 字 樓",
    "opening_hour":"",
    "play_schedule":"",
    "reservation":"",
    "min_charge":"",
    "special_event":""
    }
  },
  {
    "type": "Feature",
    "geometry": {
       "type": "Point",
       "coordinates":  [ 114.1850164,22.2700428 ]
    },
    "properties": {
    "district":"跑馬地",
    "name":"HAPPY VALLEY BAR & GRILL",
    "phone":"22505722",
    "address":"跑馬地黃泥涌道37B號地下",
    "opening_hour":"",
    "play_schedule":"",
    "reservation":"",
    "min_charge":"",
    "special_event":""
    }
  },
  {
    "type": "Feature",
    "geometry": {
       "type": "Point",
       "coordinates":  [ 114.1415433,22.285038 ]
    },
    "properties": {
    "district":"西營盤",
    "name":"CALI MEX BAR & GRILL",
    "phone":"23255199",
    "address":"西營盤高街48-78號恒陞大廈",
    "opening_hour":"",
    "play_schedule":"",
    "reservation":"",
    "min_charge":"",
    "special_event":""
    }
  },
  {
    "type": "Feature",
    "geometry": {
       "type": "Point",
       "coordinates":  [ 114.1526907,22.282456 ]
    },
    "properties": {
    "district":"中環",
    "name":"THE GLOBE",
    "phone":"25431941",
    "address":"中環嘉咸街45-53號嘉利大廈地庫A室",
    "opening_hour":"",
    "play_schedule":"",
    "reservation":"",
    "min_charge":"",
    "special_event":""
    }
  },
  {
    "type": "Feature",
    "geometry": {
       "type": "Point",
       "coordinates":  [ 114.161192,22.3352 ]
    },
    "properties": {
    "district":"深水埗",
    "name":"正斗(火鍋)豬骨煲",
    "phone":"21423886",
    "address":"深水埗營盤街142-146號一樓",
    "opening_hour":"",
    "play_schedule":"",
    "reservation":"",
    "min_charge":"",
    "special_event":""
    }
  },
  {
    "type": "Feature",
    "geometry": {
       "type": "Point",
       "coordinates":  [ 114.1722241,22.3163257 ]
    },
    "properties": {
    "district":"旺角",
    "name":"金華燒味小廚",
    "phone":"26138889",
    "address":"旺角煙廠街14號地下",
    "opening_hour":"1100-0200",
    "play_schedule":"",
    "reservation":"需要",
    "min_charge":"沒有",
    "special_event":"沒有"
    }
  },
  {
    "type": "Feature",
    "geometry": {
       "type": "Point",
       "coordinates":  [ 114.2300667,22.4246767 ]
    },
    "properties": {
    "district":"馬鞍山",
    "name":"老爹茶居",
    "phone":"24881678",
    "address":"馬鞍山西沙路628號新港城廣場地下11-13號鋪",
    "opening_hour":"平日12-23 假日1130-2300 ",
    "play_schedule":"客人要求下才播",
    "reservation":"不用訂位",
    "min_charge":"沒有",
    "special_event":"沒有"
    }
  },
  {
    "type": "Feature",
    "geometry": {
       "type": "Point",
       "coordinates":  [ 114.2076797,22.3881598 ]
    },
    "properties": {
    "district":"沙田",
    "name":"sit together",
    "phone":"23925971",
    "address":"石門安群街3號京瑞廣場1期地下G43",
    "opening_hour":"0700-2400",
    "play_schedule":"場場播",
    "reservation":"可以訂位",
    "min_charge":"$150/位",
    "special_event":"估波遊戲, 估中送小食"
    }
  },
  {
    "type": "Feature",
    "geometry": {
       "type": "Point",
       "coordinates":  [ 114.170531,22.320332 ]
    },
    "properties": {
    "district":"旺角",
    "name":"銀龍茶餐廳",
    "phone":"23802566",
    "address":"旺角通菜街118號地下",
    "opening_hour":"24小時",
    "play_schedule":"8強",
    "reservation":"沒有",
    "min_charge":"沒有",
    "special_event":"沒有"
    }
  },
  {
    "type": "Feature",
    "geometry": {
       "type": "Point",
       "coordinates":  [ 113.9985394,22.4560215 ]
    },
    "properties": {
    "district":"天水圍",
    "name":"正記冰室",
    "phone":"26681628",
    "address":"天水圍天瑞邨街市T59號舖",
    "opening_hour":"0530-0200",
    "play_schedule":"場場播",
    "reservation":"可以訂位",
    "min_charge":"$80/位",
    "special_event":"沒有"
    }
  },
  {
    "type": "Feature",
    "geometry": {
       "type": "Point",
       "coordinates":  [ 114.156163,22.338094 ]
    },
    "properties": {
    "district":"長沙灣",
    "name":"好運星餐廳小廚",
    "phone":"35869385",
    "address":"長沙灣長發街10號A地下",
    "opening_hour":"0600-2300(若睇波會播到完)",
    "play_schedule":"場場播",
    "reservation":"沒有",
    "min_charge":"$60/位",
    "special_event":"沒有"
    }
  },
  {
    "type": "Feature",
    "geometry": {
       "type": "Point",
       "coordinates":  [ 114.1641587,22.321902 ]
    },
    "properties": {
    "district":"大角咀",
    "name":"桂坊燒臘茶餐廳",
    "phone":"23816330",
    "address":"大角咀洋松街63-65號",
    "opening_hour":"0700-2300",
    "play_schedule":"免費場次會播",
    "reservation":"沒有",
    "min_charge":"沒有",
    "special_event":"沒有"
    }
  },
  {
    "type": "Feature",
    "geometry": {
       "type": "Point",
       "coordinates":  [ 114.1604936,22.3354676 ]
    },
    "properties": {
    "district":"深水埗",
    "name":"翠河餐廳",
    "phone":"23878610",
    "address":"深水埗青山道128號威利商業大廈地下",
    "opening_hour":"24小時",
    "play_schedule":"場場播",
    "reservation":"沒有",
    "min_charge":"有,但詳情未決定,晚call",
    "special_event":"沒有"
    }
  }
]
}